City_ID,Country,City,Date,Lat,Long,Cloudiness,Humidity,Wind_Speed,Temp_Max
3838859,AR,Río Gallegos,1601343508,-51.62,-69.22,79,75,10.29,32
3833367,AR,Ushuaia,1601343509,-54.8,-68.3,40,92,11.41,32
3874787,CL,Punta Arenas,1601343273,-53.15,-70.92,20,91,10.29,32
4845585,US,Westport,1601343222,41.14,-73.36,20,88,6.93,69.8
3874930,CL,Puerto Varas,1601343511,-41.32,-72.99,90,93,4.7,48.2
965301,ZA,Edendale,1601343512,-29.65,30.31,65,95,1.7,54
2179537,NZ,Wellington,1601343375,-41.29,174.78,100,40,23.04,51.8
2206874,NZ,Waipawa,1601343513,-41.41,175.52,100,40,23.04,51.8
3899695,CL,Ancud,1601343514,-41.87,-73.82,100,93,1.99,48.99
2189529,NZ,Invercargill,1601343515,-46.4,168.35,100,79,15.01,39.99
2181997,NZ,Takaka,1601343253,-40.85,172.8,9,40,5.01,55
3873145,CL,Río Bueno,1601343517,-40.32,-72.97,100,81,4.7,48.2
7647007,AR,Bariloche,1601343517,-41.15,-71.31,99,65,10.29,46.4
2186377,NZ,Murchison,1601343518,-41.8,172.33,100,77,11.59,38.84
2180219,NZ,Waikuku,1601343519,-43.3,172.68,76,31,29.97,48.99
2160517,AU,Launceston,1601343520,-41.45,147.17,90,66,14.99,57.99
3897334,CL,Calbuco,1601343521,-41.77,-73.13,90,93,4.7,48.2
3695466,PE,La Unión,1601343522,-5.4,-80.75,0,76,12.37,63.86
2206894,NZ,Hokitika,1601343522,-42.72,170.97,54,53,29.42,47.37
2184512,NZ,Pleasant Point,1601343523,-44.27,171.13,100,27,11.99,46.99
2640729,GB,Oxford,1601343351,51.75,-1.26,90,100,5.82,59
2180815,NZ,Tuatapere,1601343525,-46.13,167.68,93,79,15.01,39.99
2192828,NZ,Bulls,1601343526,-40.17,175.38,100,72,11.99,53.01
2192964,NZ,Brightwater,1601343527,-41.38,173.12,40,40,13,52
2181625,NZ,Te Anau,1601343528,-45.42,167.72,100,83,4.25,36.12
2208248,NZ,Kaitangata,1601343529,-46.28,169.85,100,83,23,35.01
2183299,NZ,Rongotea,1601343530,-40.3,175.42,100,72,11.99,53.01
2206372,NZ,Otaki,1601343531,-40.76,175.15,100,40,23.04,53.01
2145532,AU,Ulverstone,1601343532,-41.15,146.17,100,64,8.01,57
2183824,NZ,Rakaia,1601343533,-43.75,172.02,100,39,11.01,46.99
6331908,US,Milton,1601343533,34.13,-84.3,100,87,5.84,73
3832899,AR,Viedma,1601343534,-40.81,-63,100,41,10.38,54.25
2181133,NZ,Timaru,1601343402,-44.4,171.25,100,27,11.99,46.99
2206895,NZ,Greymouth,1601343536,-42.47,171.2,87,58,24.05,44.74
3894426,CL,Coyhaique,1601343537,-45.58,-72.07,40,86,4.7,41
3839307,AR,Rawson,1601343357,-43.3,-65.1,71,38,8.88,58.64
2184707,NZ,Wanaka,1601343539,-44.7,169.15,87,71,14.03,36
2173125,AU,Burnie,1601343540,-41.07,145.92,100,69,11.01,57
3333212,GB,Wakefield,1601343541,53.68,-1.5,61,86,3.98,55.99
2184904,NZ,Te Horo,1601343542,-40.81,175.12,100,40,23.04,53.01
2188444,NZ,Leeston,1601343543,-43.77,172.3,100,34,8.99,48.99
2187365,NZ,Mapua,1601343544,-41.25,173.1,4,40,13,52
3874960,CL,Port Montt,1601343545,-41.47,-72.94,90,93,4.7,48.2
2178982,NZ,Woodend,1601343546,-43.32,172.67,79,31,29.97,48.99
4951594,US,Southbridge,1601343547,42.08,-72.03,9,94,5.95,66
2186280,NZ,Nelson,1601343548,-41.28,173.28,38,40,13,52
2155415,AU,New Norfolk,1601343265,-42.78,147.06,2,48,3,61
2206361,NZ,Patea,1601343550,-39.76,174.48,100,69,17,50
2077454,AU,Australind,1601343551,-33.27,115.72,91,84,11.01,59
3855075,AR,General Pico,1601343256,-35.66,-63.76,84,52,13.24,59.45
2063030,AU,Port Pirie,1601343554,-33.18,138.02,90,77,11.41,59
3442727,UY,Durazno,1601343555,-33.41,-56.5,0,77,5.55,50.61
2156643,AU,Mount Gambier,1601343556,-37.83,140.77,40,51,17.22,60.8
946877,ZA,Uitenhage,1601343557,-33.76,25.4,10,66,17.22,55.4
963516,ZA,Queenstown,1601343289,-31.9,26.88,99,71,3.13,46.18
4163971,US,Melbourne,1601343497,28.08,-80.61,75,100,14.32,77
2187908,NZ,Maketu,1601343559,-37.77,176.45,0,51,17,59
2065176,AU,Murray Bridge,1601343412,-35.12,139.27,100,52,1.99,66
3841956,AR,Paraná,1601343262,-31.73,-60.52,0,61,8.68,56.12
3861344,AR,Chivilcoy,1601343561,-34.9,-60.02,52,58,1.99,60.01
1002145,ZA,George,1601343562,-33.96,22.46,0,81,6.93,48.2
2181511,NZ,Te Kauwhata,1601343563,-37.4,175.15,9,55,17,57.99
2208327,NZ,Paeroa,1601343564,-37.37,175.67,9,54,14,61
2145110,AU,Wagga Wagga,1601343565,-35.12,147.37,20,59,10.29,64.99
2148431,AU,Stawell,1601343566,-37.05,142.77,100,69,13.71,58.46
2172517,AU,Canberra,1601343453,-35.28,149.13,26,54,5.82,63
3443411,UY,Departamento de Canelones,1601343567,-34.64,-56.29,0,71,5.82,53.01
2208333,NZ,Thames,1601343568,-37.13,175.53,5,55,17,61
3466165,BR,Cidreira,1601343569,-30.18,-50.21,0,78,9.1,59.23
2185964,NZ,North Shore,1601343570,-36.8,174.75,84,62,15.01,60.01
3430708,AR,Mercedes,1601343389,-34.65,-59.43,45,90,6.24,57
3879627,CL,Molina,1601343571,-35.12,-71.28,72,71,3.36,55.4
2170430,AU,Cootamundra,1601343572,-34.65,148.03,35,54,5.99,64.99
2150163,AU,Sawtell,1601343574,-30.38,153.1,11,55,10.29,66.2
2189630,NZ,Hunterville,1601343575,-39.93,175.57,100,72,11.99,53.01
964712,ZA,Plettenberg Bay,1601343576,-34.05,23.37,10,80,11.12,52.2
3883035,CL,Llaillay,1601343576,-32.85,-70.97,75,87,6.93,57
2170139,AU,Cowra,1601343577,-33.83,148.68,10,51,4,55
2169068,AU,Deniliquin,1601343578,-35.53,144.97,94,45,5.99,64.99
3893532,CL,Coronel,1601343579,-37.02,-73.13,75,76,5.82,50
946058,ZA,Mthatha,1601343580,-31.59,28.78,0,93,1.12,44.6
2177233,AU,Bairnsdale,1601343581,-37.83,147.62,64,64,3,62.01
3443758,UY,Artigas,1601343581,-30.4,-56.47,0,75,5.91,51.66
2176225,AU,Benalla,1601343582,-36.55,145.98,100,63,6.93,60.8
3369157,ZA,Cape Town,1601343356,-33.93,18.42,0,93,4.7,54
2187175,NZ,Matata,1601343583,-37.88,176.75,0,51,17,61
3883214,CL,Limache,1601343584,-33.02,-71.27,75,87,6.93,51.8
3455461,BR,Palmares do Sul,1601343585,-30.26,-50.51,0,79,7.52,59.45
2157698,AU,Mildura,1601343586,-34.2,142.15,100,30,14.99,71.01
2177671,AU,Armidale,1601343359,-30.52,151.65,69,59,1.01,57
2208332,NZ,Opotiki,1601343587,-38.08,177.28,2,55,11.01,61
3472343,BR,Americana,1601343588,-22.74,-47.33,20,60,13.87,73.4
934390,MU,Lalmatie,1601343589,-20.19,57.66,40,88,9.17,73
3461498,BR,Igarapé,1601343399,-20.07,-44.3,8,32,2.24,82.4
3445126,BR,Videira,1601343590,-27.01,-51.15,0,89,0.92,52.77
3462580,BR,Garça,1601343591,-22.21,-49.66,25,69,6.93,80.6
3470279,BR,Bauru,1601343592,-22.31,-49.06,7,69,6.93,80.6
3467542,BR,Cândido Mota,1601343593,-22.75,-50.39,16,70,8.25,75.94
3455553,BR,Paiçandu,1601343349,-23.46,-52.05,0,83,8.05,71.6
3433715,AR,Goya,1601343594,-29.14,-59.26,0,70,6.53,57.9
936048,RE,Bras-Panon,1601343597,-21,55.68,75,60,12.75,73.4
3453643,BR,Piracicaba,1601343347,-22.73,-47.65,20,60,13.87,73.4
1021360,ZA,Ballitoville,1601343598,-29.54,31.21,75,93,3.36,57.2
943960,ZA,Viljoenskroon,1601343599,-27.21,26.95,0,48,3.38,32
3447423,BR,Soledade,1601343600,-28.82,-52.51,0,92,2.91,48.92
933292,BW,Maunatlala,1601343601,-22.6,27.63,41,83,6.04,62.96
5224151,US,Providence,1601343549,41.82,-71.41,90,100,6.93,66.99
949224,ZA,Thohoyandou,1601343603,-22.95,30.48,98,90,4.74,60.8
3401188,BR,Andira,1601343604,-0.74,-47.84,0,80,6.4,77.05
934971,SZ,Mhlambanyatsi,1601343604,-26.45,31.02,98,95,1.3,50.49
3463604,BR,Fartura,1601343605,-23.39,-49.51,5,86,4.94,70.88
3467371,BR,Capâo Bonito,1601343606,-24.01,-48.35,42,98,3.22,65.07
933456,BW,Makaleng,1601343606,-20.9,27.28,25,88,10.45,62.4
3359638,NA,Walvis Bay,1601343607,-22.96,14.51,0,87,8.05,50
3452216,BR,Prudentópolis,1601343608,-25.21,-50.98,0,96,2.8,61.5
2174933,AU,Bongaree,1601343609,-27.08,153.16,20,52,1.01,72
3471005,BR,Bambuí,1601343610,-20.01,-45.98,6,28,1.21,77.16
4030556,PF,Rikitea,1601343611,-23.12,-134.97,82,87,20.67,71.55
3467877,BR,Campina Grande do Sul,1601343612,-25.31,-49.06,96,93,3.36,64.4
3470324,BR,Brodowski,1601343612,-20.98,-47.66,75,50,11.41,78.8
3452320,BR,Presidente Venceslau,1601343613,-21.88,-51.84,66,65,8.55,77.68
3457741,BR,Marialva,1601343614,-23.48,-51.79,12,65,4.79,78.8
3995005,MX,Veinticinco de Diciembre,1601343615,25.26,-104.05,100,53,10.38,73.09
3457001,BR,Biritiba-Mirim,1601343615,-23.57,-46.04,100,77,3.36,77
935111,SZ,Bulembu,1601343616,-25.97,31.13,99,87,2.24,64
3455061,BR,Paranapanema,1601343617,-23.39,-48.72,49,88,5.64,69.24
935055,SZ,Kubuta,1601343618,-26.88,31.48,93,88,2.24,58.03
3472825,BR,Agudos,1601343618,-22.47,-48.99,2,69,6.93,80.6
6533368,AU,Moranbah,1601343619,-22,148.05,31,41,16.8,78.28
3461477,BR,Iguaba Grande,1601343324,-22.84,-42.23,86,88,6.93,75.2
3460514,BR,Ituporanga,1601343621,-27.41,-49.6,0,96,1.21,64.99
934533,MU,Espérance Trébuchet,1601343622,-20.07,57.64,82,77,7,73
934624,MU,Chamouny,1601343622,-20.48,57.47,40,88,9.17,71.6
981158,ZA,Lydenburg,1601343623,-25.1,30.46,44,95,1.01,62.01
2175403,AU,Blackwater,1601343624,-23.58,148.88,3,37,12.86,78.13
3464343,BR,Eldorado,1601343625,-23.79,-54.28,0,51,3.18,67.41
1278454,IN,Arni,1601343626,12.67,79.28,77,77,4.34,79.7
905395,ZM,Mufulira,1601343627,-12.55,28.24,95,40,6.42,64.83
3464364,BR,Ecoporanga,1601343628,-18.37,-40.83,1,81,3.29,71.73
259289,GR,Corinth,1601343630,37.94,22.96,2,62,1.99,71.01
2511150,ES,Santa Lucía,1601343630,27.91,-15.54,75,73,18.34,73.4
3449933,BR,Santana do Paraíso,1601343631,-19.36,-42.57,24,41,1.7,73.69
3467450,BR,Cansanção,1601343452,-10.67,-39.5,12,84,10.92,70.54
3938819,PE,Huayucachi,1601343633,-12.13,-75.23,100,69,5.08,50.16
3468535,BR,Cachoeira,1601343633,-12.62,-38.96,29,94,3.58,70.47
3456445,BR,Mutum,1601343634,-19.8,-41.44,0,53,2.95,77.63
3454358,BR,Pedro Leopoldo,1601343635,-19.62,-44.04,16,30,6.93,82.4
3458329,BR,Luziânia,1601343636,-16.25,-47.95,0,31,2.24,78.8
3456102,BR,Nova Viçosa,1601343636,-17.89,-39.37,7,86,12.75,74.77
3468732,BR,Buritis,1601343637,-15.62,-46.42,42,26,0.94,78.55
3445839,BR,Uberaba,1601343640,-19.75,-47.93,77,25,5.82,84.2
3465542,BR,Coração de Jesus,1601343641,-16.69,-44.37,0,24,3.36,80.6
3938451,PE,Ilave,1601343641,-16.08,-69.67,100,90,5.68,39.61
3463478,BR,Feira de Santana,1601343642,-12.27,-38.97,30,93,5.93,70.12
3454606,BR,Arraias,1601343643,-12.93,-46.94,96,20,4.03,76.6
4033077,PF,Vaitape,1601343644,-16.52,-151.75,2,80,19.24,78.55
3350246,AO,Catumbela,1601343645,-12.43,13.55,0,81,1.92,70.65
3460542,BR,Itororó,1601343349,-15.12,-40.07,26,94,4.23,68.02
3459922,BR,Jeremoabo,1601343647,-10.07,-38.48,34,92,9.42,68.49
3924674,BR,Xapuri,1601343648,-10.65,-68.5,100,96,1.36,72.37
3933345,PE,Palpa,1601343648,-14.53,-75.19,2,73,0.56,60.71
3469058,BR,Brasília,1601343649,-15.78,-47.93,0,31,2.24,78.8
3446400,BR,Tobias Barreto,1601343650,-11.18,-38,13,95,8.93,69.78
3457398,BR,Mato Verde,1601343651,-15.4,-42.87,0,27,8.01,74.41
3354077,NA,Opuwo,1601343652,-18.06,13.84,28,36,4.03,55.76
3446038,BR,Trindade,1601343652,-16.65,-49.49,0,44,1.12,78.8
3462383,BR,Goianápolis,1601343653,-16.51,-49.02,0,44,1.12,78.8
3348313,AO,Huambo,1601343654,-12.78,15.74,98,79,2.06,58.62
3627047,VE,Santa Teresa del Tuy,1601343655,10.23,-66.66,100,87,1.19,72
3904221,BO,Sipe Sipe,1601343656,-17.45,-66.38,75,39,4.7,64.4
3939023,PE,Huaura,1601343657,-11.07,-77.6,93,83,5.86,61.63
3946937,PE,Azángaro,1601343658,-14.92,-70.22,100,78,4.83,44.29
3449176,BR,São Francisco,1601343658,-15.95,-44.86,0,22,2.84,79.27
3935969,PE,Los Aquijes,1601343659,-14.1,-75.69,0,82,12.75,63
877784,TZ,Mtama,1601343660,-10.3,39.37,40,92,1.79,68.4
3925212,BR,Cacoal,1601343661,-11.44,-61.45,85,74,2.82,76.98
3901485,BO,Viloco,1601343662,-16.95,-67.55,68,89,1.66,42.75
877384,TZ,Tingi,1601343663,-11.3,35.03,3,85,5.91,62.11
3456905,BR,Montanha,1601343663,-18.13,-40.36,5,86,12.03,72
431747,BI,Muyinga Province,1601343664,-2.83,30.33,100,88,1.34,61.16
3690654,PE,Yurimaguas,1601343665,-5.9,-76.08,37,76,1.14,77.58
1634098,ID,Ngawi,1601343667,-7.4,111.45,0,49,9.75,88.38
3453837,BR,Buriti,1601343668,-22.93,-45.39,74,94,1.74,68
159218,TZ,Ilembula,1601343668,-8.9,34.58,63,84,7.34,61.68
184921,KE,Mwingi,1601343670,-0.93,38.06,69,94,4.03,65.39
217834,CD,Bukama,1601343671,-9.2,25.85,100,77,1.79,71.91
2091996,PG,Madang,1601343671,-5.22,145.8,99,58,2.95,85.64
3408343,BR,Acopiara,1601343672,-6.1,-39.45,53,82,6.71,74.5
3395689,BR,Manaíra,1601343673,-7.71,-38.15,1,86,8.57,69.15
3388925,BR,São Caitano,1601343674,-8.33,-36.14,65,95,7,66.42
3388145,BR,São Raimundo Nonato,1601343376,-9.02,-42.7,4,35,0.69,77.11
192869,KE,Keroka,1601343676,-0.78,34.95,42,99,2.53,52.54
149027,TZ,Uyovu,1601343677,-3.28,31.53,95,90,2.98,63.52
3401992,BR,Coelho Neto,1601343677,-4.26,-43.01,77,75,3.44,78.55
145724,AO,Lucapa,1601343678,-8.42,20.74,100,96,4.29,67.28
3665202,BR,Aripuanã,1601343679,-9.17,-60.63,43,67,1.7,78.15
3393766,BR,Ocara,1601343680,-4.49,-38.6,65,86,6.42,74.8
159267,TZ,Ikungi,1601343680,-5.13,34.77,27,95,10.92,59.81
3393922,BR,Nísia Floresta,1601343681,-6.09,-35.21,20,88,5.82,75.2
188080,KE,Makueni Boma,1601343682,-1.8,37.62,94,88,4.54,66.04
3651438,EC,Santa Elena,1601343685,-2.23,-80.85,97,89,11.88,66.7
1687894,PH,Santa Rosa,1601343686,14.31,121.11,40,74,4.7,89.01
1621177,ID,Yogyakarta,1601343687,-7.78,110.36,70,54,8.86,82.99
3403611,BR,Campo Alegre,1601343676,-9.78,-36.35,20,94,4.7,73.4
1625708,ID,Tabanan,1601343688,-8.54,115.13,40,89,10.29,84.2
148842,TZ,Wete,1601343689,-5.06,39.73,100,83,5.37,75.56
204953,CD,Tshikapa,1601343690,-6.42,20.8,99,90,3.85,72.25
155076,TZ,Makuyuni,1601343691,-4.73,38.1,100,80,2.57,71.56
3388660,BR,São João,1601343691,-8.88,-36.37,72,97,7.49,65.16
1648266,ID,Bondowoso,1601343692,-7.91,113.82,10,47,3.8,86.85
3406263,BR,Barras,1601343693,-4.24,-42.29,98,80,9.51,77.79
152743,TZ,Mto wa Mbu,1601343694,-3.35,35.85,47,78,3.53,68.38
3697083,PE,Eten,1601343695,-6.91,-79.86,2,88,11.68,60.42
3398355,BR,Igaci,1601343695,-9.54,-36.63,11,96,6.02,68.38
184745,KE,Nairobi,1601343501,-1.28,36.82,75,82,9.17,62.6
3659599,EC,Catamayo,1601343697,-3.98,-79.35,43,78,1.07,63.82
175555,ZM,Nakonde,1601343698,-9.34,32.74,93,87,1.97,56.75
1628453,ID,Sawangan,1601343699,-6.4,106.77,20,65,6.93,90
3652943,EC,Portovelo,1601343699,-3.72,-79.62,100,74,1.25,71.62
3653403,EC,Pasaje,1601343700,-3.33,-79.82,100,81,1.77,71.38
3390901,BR,Quixeramobim,1601343701,-5.2,-39.29,13,83,9.01,75.2
2236967,AO,Soyo,1601343702,-6.13,12.37,100,83,8.59,73.44
1682775,PH,Tarusan,1601343702,8.65,117.51,100,79,4.9,81.9
1686007,PH,Sison,1601343703,16.17,120.52,31,64,3.69,86.41
2335614,NG,Kagoro,1601343704,9.6,8.38,100,91,0.6,67.66
3687213,CO,Casabianca,1601343705,5.08,-75.12,89,94,2.64,57.07
233312,UG,Hoima,1601343707,1.44,31.34,77,98,2.57,63.03
3709742,PA,Escobal,1601343707,9.15,-79.96,100,94,3,77
3382160,GF,Cayenne,1601343708,4.93,-52.33,17,88,5.82,78.8
5392368,US,San Marcos,1601343425,33.14,-117.17,1,78,2.51,77
1686572,PH,Silab,1601343709,9.44,123.18,75,83,4.7,82.4
4007676,MX,Pueblo Nuevo,1601343710,23.38,-105.38,84,75,6.76,63.66
3837213,AR,San Juan,1601343711,-31.54,-68.54,0,29,19.28,67.35
2318374,NG,Gboko,1601343712,7.32,9,100,95,11.56,72.86
3804949,VE,Guasdualito,1601343713,7.24,-70.73,6,93,2.84,74.68
2293801,GH,Yendi,1601343713,9.44,-0.01,100,93,4.94,72.72
198629,KE,Eldoret,1601343714,0.52,35.27,5,86,4.38,54.16
3671287,CO,Puerto Wilches,1601343715,7.35,-73.9,65,91,0.78,76.86
1712245,PH,Guiong,1601343716,6.42,122.03,90,83,2.24,82.4
2224212,CM,Njinikom,1601343717,6.23,10.28,100,99,1.81,62.17
1645133,ID,Dumai,1601343718,1.68,101.45,100,73,4.09,82.17
4026075,MX,Guacamayas,1601343719,18.02,-102.22,99,75,1.01,80.1
3792382,CO,Cartagena del Chairá,1601343720,1.33,-74.84,4,83,1.05,74.37
1690774,PH,Salug,1601343720,8.11,122.78,98,74,5.93,83.71
7671223,PW,Kloulklubed,1601343721,7.04,134.26,75,70,8.05,86
1262338,IN,Mūvattupula,1601343722,9.97,76.58,40,94,2.06,77
6541905,IT,Nola,1601343723,40.92,14.53,47,93,3.36,57.2
3583446,SV,San Miguel,1601343724,13.48,-88.18,77,92,2.3,75.47
3684266,CO,El Dovio,1601343725,4.51,-76.24,100,96,4.07,64.09
3714000,PA,Boca de Parita,1601343726,8.02,-80.45,94,82,0.72,78.84
3492908,DO,Santo Domingo,1601343556,18.5,-69.99,99,100,2.26,79
1729550,PH,Bacong,1601343730,9.25,123.3,75,83,4.7,82.4
3681222,CO,Güicán,1601343730,6.46,-72.41,41,78,4.16,47.73
3446065,BR,Três Rios,1601343617,-22.12,-43.21,94,71,3.74,74.05
1695180,PH,Simbahan,1601343732,6.3,120.58,100,80,17.63,81.52
1632859,ID,Pandaan,1601343733,-7.65,112.69,0,43,1.92,88.56
3396016,BR,Macapá,1601343733,0.04,-51.07,20,74,12.75,84.2
3681356,CO,Guateque,1601343476,5.01,-73.47,77,82,2.89,58.93
1704552,PH,Mabini,1601343735,15.6,120.98,75,74,2.24,86
1267360,IN,Kayamkulam,1601343736,9.18,76.5,100,90,4.54,77
1214658,ID,Lhokseumawe,1601343737,5.18,97.15,96,71,6.24,82.74
1732160,PH,Agay,1601343738,9.05,125.59,28,69,1.88,86.32
3680453,CO,Istmina,1601343739,5.16,-76.68,98,94,2.17,74.7
2385535,CF,Kouango,1601343740,4.99,19.96,100,95,0.2,69.13
3837056,AR,San Luis,1601343450,-33.3,-66.34,0,31,11.3,61.9
1735158,MY,Petaling Jaya,1601343628,3.11,101.61,20,78,3.58,87.01
1712961,PH,Gigmoto,1601343742,13.78,124.39,93,60,4.65,87.93
1727089,PH,Banquero,1601343743,17.02,121.78,100,82,0.4,82.72
1255712,IN,Sorada,1601343744,19.75,84.43,4,74,2.1,81.5
3514437,MX,Xochitepec,1601343744,18.78,-99.23,98,86,2.93,69.39
3815453,MX,Villa Vicente Guerrero,1601343745,19.12,-98.17,100,78,8.7,60.66
1687038,PH,Sebaste,1601343746,11.59,122.09,98,61,2.08,87.57
1711061,PH,Ilihan,1601343747,13.63,121.08,98,74,1.99,87.01
1684210,PH,Tajao,1601343748,10.31,123.58,40,74,6.93,86
1716834,PH,Coron,1601343750,12,120.2,100,78,7.29,83.98
1696814,PH,Pacol,1601343750,10.45,122.82,19,71,2.19,84.83
3670218,CO,San Andrés,1601343751,12.58,-81.7,40,83,5.82,80.6
1695357,PH,Tococ,1601343752,16.03,120.32,54,68,3.56,86.02
321572,TR,Belen,1601343753,36.49,36.22,0,88,4.7,77
1152322,TH,Long,1601343755,18.08,99.83,75,94,3.06,84.99
1607512,TH,Phra Phutthabat,1601343756,14.73,100.8,98,70,5.99,84.99
3588762,GT,Sibilia,1601343757,15,-91.62,100,100,2.39,66
1690039,PH,San Fernando,1601343758,15.03,120.69,75,74,2.24,86
1718621,PH,Capoocan,1601343758,11.29,124.64,15,59,0.36,89.87
1657818,LA,Champasak,1601343759,14.75,106,75,88,4.7,78.8
3587345,SV,Apopa,1601343761,13.81,-89.18,84,83,1.57,73
1724240,PH,Bolong,1601343762,7.1,122.24,90,83,2.24,82.4
5392090,US,San Jacinto,1601343763,33.78,-116.96,0,40,2.24,87.01
2245170,MR,Podor,1601343764,16.65,-14.96,0,55,9.84,84.54
1259019,IN,Rāhuri,1601343765,19.38,74.65,1,79,3.22,73.74
1720573,PH,Calaoagan,1601343766,18.04,121.72,100,73,3.33,84.99
3520926,MX,Quecholac,1601343768,18.95,-97.67,100,83,1.99,66
3526625,MX,Jalacingo,1601343768,19.8,-97.3,100,98,1.19,58.55
1693303,PH,Pitogo,1601343769,13.78,122.09,100,65,5.3,86.81
3998291,MX,Loreto,1601343770,22.27,-101.97,94,52,21.56,64.08
5392952,US,Santa Barbara,1601343541,34.42,-119.7,0,96,1.99,64.99
1688066,PH,Rawis,1601343771,12.1,124.82,97,57,1.57,91.04
3584156,SV,Panchimalco,1601343772,13.61,-89.18,20,78,2.24,82.4
1684077,PH,Talalora,1601343775,11.53,124.84,82,68,2.46,85.6
1688420,PH,Santa,1601343776,17.49,120.43,32,66,2.06,85.78
1687564,PH,Santo Rosario,1601343777,15.64,120.86,75,74,2.24,86
1710526,PH,Isabang,1601343778,13.96,121.57,100,74,1.99,87.01
2428231,TD,Massaguet,1601343779,12.48,15.44,75,88,11.41,73.4
3583905,SV,San Alejo,1601343780,13.43,-87.96,79,94,2.13,75.49
1271308,IN,Ghaziabad,1601343781,28.67,77.43,20,78,4.7,84.99
2037086,CN,Haicheng,1601343783,40.85,122.75,100,71,11.21,56.35
1255348,IN,Surgāna,1601343784,20.57,73.62,0,92,1.16,69.75
1276058,IN,Bhātpāra,1601343785,22.87,88.41,40,94,5.82,84.2
1265150,IN,Lālpur,1601343786,22.2,69.97,0,78,7.23,77.99
1263761,IN,Manglaur,1601343787,29.8,77.87,0,93,3.69,66.2
1274735,IN,Chandla,1601343787,25.08,80.2,1,74,6.55,79.75
1253947,IN,Udpura,1601343788,24.72,75.97,97,70,4.14,78.37
1256598,IN,Sheoganj,1601343789,25.15,73.07,0,69,3.29,77.72
3985912,MX,San Juan de Abajo,1601343790,20.82,-105.18,90,74,3.36,87.8
1269183,IN,Jarwal,1601343791,27.17,81.55,0,67,0.76,79.43
1673820,TW,Kaohsiung City,1601343792,22.62,120.31,40,70,2.24,86
1258581,IN,Rampur Hat,1601343793,24.17,87.78,97,79,2.75,84.11
3438735,PY,Encarnación,1601343794,-27.33,-55.9,0,73,5.01,56.48
1276621,IN,Begamganj,1601343795,23.6,78.33,59,88,5.46,73.42
1278708,IN,Amroha,1601343796,28.92,78.47,0,64,1.59,73.94
1279023,IN,Alīganj,1601343797,27.5,79.18,0,49,3.53,79.2
1270951,IN,Gopāmau,1601343798,27.55,80.28,0,60,1.74,79.29
4175117,US,The Hammocks,1601343799,25.67,-80.44,1,100,8.59,80.01
119374,IR,Qeshm,1601343801,26.96,56.27,0,88,4.7,78.8
3996234,MX,Meoqui,1601343801,28.28,-105.48,5,33,11.41,71.6
4723212,US,Robstown,1601343802,27.79,-97.67,75,38,17.22,77
1784990,CN,Zhanjiang,1601343803,21.28,110.34,100,81,7.74,83.48
4177887,US,West Palm Beach,1601343733,26.72,-80.05,75,83,8.08,82.4
1174167,PK,Khanpur,1601343804,28.65,70.66,0,37,7.56,82.65
1276956,IN,Barhi,1601343805,23.9,80.8,0,84,4.23,75.65
1267227,IN,Keshod,1601343806,21.3,70.25,0,84,3.44,76.78
1270961,IN,Gopālpur,1601343807,19.27,84.92,4,74,6.69,83.12
1272653,IN,Dibai,1601343808,28.22,78.25,0,42,3.71,78.06
1174408,PK,Khadro,1601343809,26.15,68.72,0,78,15.05,78.8
3883167,CL,Linares,1601343809,-35.85,-71.6,100,82,0.83,49.59
3566134,CU,Calimete,1601343811,22.53,-80.91,9,90,3.8,75.92
1278094,IN,Ayodhya,1601343812,26.8,82.2,0,65,0.58,79.92
1271563,IN,Garhākota,1601343812,23.77,79.15,23,84,5.73,76.1
1271892,IN,Fatwa,1601343813,25.52,85.32,40,94,3.4,77
4566137,PR,Manatí,1601343814,18.43,-66.49,85,84,8.39,79
1278899,IN,Amarpātan,1601343815,24.32,80.98,0,76,3.98,77.68
1185106,BD,Jamālpur,1601343786,24.92,89.93,26,79,3.71,83.61
1785781,CN,Yulin,1601343816,22.63,110.15,84,79,2.8,83.25
1257259,IN,Saraipali,1601343817,21.33,83,5,76,2.08,78.96
1809078,CN,Haikou,1601343818,20.05,110.34,99,94,2.24,80.6
4781708,US,Richmond,1601343786,37.55,-77.46,75,88,6.93,73.99
1793346,CN,Tangshan,1601343820,39.63,118.18,100,71,13.98,55.35
5339066,US,Compton,1601343823,33.9,-118.22,1,73,6.93,79
5334223,US,Carlsbad,1601343823,33.16,-117.35,1,88,8.05,73.99
2271350,PT,Aveiras de Cima,1601343824,39.14,-8.9,4,3,5.01,62.01
3836669,AR,San Rafael,1601343825,-34.62,-68.33,2,27,15.43,65.8
4736388,US,The Colony,1601343741,33.09,-96.89,5,32,8.05,69.01
1855380,JP,Ninomiya,1601343828,35.3,139.25,100,53,5.99,73
5385393,US,Quartz Hill,1601343828,34.65,-118.22,1,8,10.29,91.4
6613142,FR,Vincennes,1601343829,48.85,2.43,90,87,3.36,57.2
5289658,US,Chino Valley,1601343831,34.76,-112.45,1,13,4.7,82.4
301539,TR,Şarkîkaraağaç,1601343831,38.08,31.37,0,50,3.47,65.23
6182962,CA,Windsor,1601343832,42.3,-83.02,90,93,8.05,57.99
5353484,US,Grand Terrace,1601343833,34.03,-117.31,1,28,9.17,93.2
255777,GR,Paralia,1601343834,38.2,21.7,20,93,9.1,64.4
1279403,IN,Abohar,1601343835,30.15,74.18,0,30,1.36,77.49
1267776,IN,Kargil,1601343752,34.57,76.1,0,59,3.31,41.4
1859941,JP,Kashima,1601343837,33.11,130.09,20,69,6.93,73.4
261678,GR,Kaisarianí,1601343838,37.97,23.8,70,73,3.36,73
1278860,IN,Ambāla,1601343839,30.38,76.78,5,100,1.12,71.6
298846,TR,Tunceli,1601343839,39.11,39.55,0,39,8.05,66.2
2266272,PT,Moncarapacho,1601343840,37.09,-7.79,0,49,6.93,71.6
5324903,US,Arvin,1601343841,35.21,-118.83,0,37,3,91
2521665,ES,Arcos de la Frontera,1601343841,36.75,-5.81,93,67,3.36,70
1856243,JP,Nagahama,1601343842,35.38,136.27,31,71,1.57,77
5746545,US,Portland,1601343665,45.52,-122.68,1,28,13.87,81
4466033,US,Fayetteville,1601343585,35.05,-78.88,20,94,4.7,69.8
261996,GR,Gónnoi,1601343845,39.87,22.47,20,93,5.97,59
145459,IR,Ābādān,1601343845,30.34,48.3,0,44,6.98,75.2
1254608,IN,Narkanda,1601343846,31.25,77.46,0,66,3.47,50.07
1260784,IN,Pālampur,1601343848,32.12,76.53,0,36,4.54,65.43
5391811,US,San Diego,1601343695,32.72,-117.16,20,69,6.93,77
1861949,JP,Kasamatsu,1601343850,35.37,136.76,66,61,2.93,78.01
315372,TR,Erzincan Province,1601343850,39.75,39.5,0,67,3.36,59
5335650,US,Ceres,1601343851,37.59,-120.96,75,17,4.7,93.2
1184752,PK,Akora,1601343853,34,72.13,20,56,9.17,69.8
5410430,US,Woodland,1601343796,38.68,-121.77,40,15,5.82,96.8
2524583,IT,Grammichele,1601343854,37.21,14.64,3,100,4.7,57.99
5006166,US,Pontiac,1601343749,42.64,-83.29,49,100,5.99,54
5059163,US,Fargo,1601343823,46.88,-96.79,1,62,10.29,54
3127538,ES,Bueu,1601343856,42.32,-8.79,70,82,3.36,64
666467,RO,Someş-Odorhei,1601343857,47.32,23.27,100,100,2.24,55.4
664891,RO,Titu,1601343858,44.65,25.53,100,100,5.82,64.4
3166740,IT,Senigallia,1601343859,43.71,13.22,0,82,5.82,55.99
5148273,US,Broadview Heights,1601343860,41.31,-81.69,90,93,9.17,57.2
719555,HU,Kaba,1601343860,47.35,21.28,90,100,6.93,51.8
2953313,DE,Bad Wörishofen,1601343861,48.02,10.6,21,85,6.46,46
616328,AM,Hoktember,1601343862,40.13,44.01,0,48,4.7,62.6
3179656,IT,Castellana Grotte,1601343862,40.89,17.17,5,100,3.36,55.4
4685737,US,Deer Park,1601343572,29.71,-95.12,75,46,11.41,75.2
6541472,IT,Urbino,1601343864,43.73,12.64,0,66,10.29,55.99
3062658,CZ,Vnorovy,1601343864,48.93,17.35,100,95,5.08,53.01
673814,RO,Margina,1601343870,45.85,22.27,100,87,2.24,55.8
2026643,RU,Zarechye,1601343871,48.78,132.91,0,54,8.84,57.2
3076931,CZ,Dolní Benešov,1601343872,49.92,18.11,100,95,3.04,51.01
673982,RO,Malu Mare,1601343872,44.23,23.87,90,100,5.82,57.99
5907092,CA,Bracebridge,1601343873,45.03,-79.32,90,77,8.05,68
2817324,DE,Viernheim,1601343874,49.54,8.58,76,88,4.45,53.01
1269750,IN,India,1601343875,20,77,0,83,8.23,72.93
5745380,US,Pendleton,1601343876,45.67,-118.79,1,27,10.29,73.4
674844,RO,Lespezi,1601343876,47.37,26.7,75,93,6.93,59
672343,RO,Negru Vodă,1601343877,43.82,28.2,13,87,10.98,66
3344788,BA,Bijela,1601343878,43.61,17.95,40,100,2.24,55.4
2037335,CN,Fuyu,1601343879,45.18,124.82,0,60,8.86,55
2737137,PT,Nogueira da Regedoura,1601343881,41.01,-8.59,31,83,1.86,61
666235,RO,Ştefăneşti,1601343881,44.87,24.93,100,94,2.17,57.96
6147962,CA,Simcoe,1601343879,42.83,-80.3,100,92,16.62,64
670472,RO,Plopana,1601343883,46.68,27.22,84,100,10.29,60.8
3109642,ES,Santiago de Compostela,1601343884,42.88,-8.55,91,87,4.7,51.01
785559,RS,Stara Pazova,1601343885,44.98,20.16,40,100,3.36,57.2
5789856,US,Cheney,1601343804,47.49,-117.58,20,28,1.32,71.6
1514844,TJ,Pakhtakoron,1601343886,40.16,68.75,100,34,6.35,58.77
684280,RO,Boldeşti-Scăeni,1601343887,45.03,26.03,100,82,4.65,55
683961,RO,Brădeşti,1601343888,44.48,23.63,92,97,1.01,57.99
783938,MK,Zelenikovo,1601343889,41.89,21.59,90,87,1.12,59
697325,UA,Petrove,1601343889,48.32,33.26,100,87,4.47,57.2
3192236,BA,Novi Travnik,1601343890,44.17,17.66,75,100,1.12,50
696771,UA,Pohrebyshche,1601343891,49.49,29.26,49,71,9.08,55.11
3170472,SM,Poggio Chiesanuova,1601343891,43.9,12.42,0,87,3.36,55.99
2834240,DE,Schwetzingen,1601343892,49.38,8.58,75,92,5.99,54
5231851,US,Sioux Falls,1601343741,43.55,-96.7,40,62,10.29,51.8
2878037,DE,Lichtenstein,1601343894,50.75,12.65,2,87,5.59,51.01
484747,RU,Talovaya,1601343895,51.11,40.73,98,47,11.88,50.41
491025,RU,Soligalich,1601343895,59.08,42.29,100,78,6.96,48.85
3072903,CZ,Kraslice,1601343896,50.32,12.52,9,96,2.39,46
3141107,NO,Røyken,1601343897,59.75,10.39,100,32,1.01,55
528288,RU,Maykor,1601343898,59.01,55.88,76,93,2.73,45.77
568822,RU,Chernitsyno,1601343899,51.51,36.05,100,59,8.01,53.01
580432,RU,Atemar,1601343899,54.18,45.41,100,56,4.88,46.47
512570,RU,Parfino,1601343900,57.97,31.65,55,94,4.36,50
2023584,RU,Imeni Poliny Osipenko,1601343901,52.42,136.49,0,50,2.75,56.79
2178357,AU,Aberfoyle,1601343902,-30.27,152.02,46,47,2.64,56.17
2905290,DE,Hessisch Oldendorf,1601343903,52.17,9.25,20,81,3.36,52
2619221,DK,Jyderup,1601343904,55.66,11.42,2,100,1.12,51.01
793505,EE,Olgina,1601343905,59.4,28.13,21,96,5.91,49.39
2622418,DK,Espergærde,1601343906,56,12.57,5,92,3,54
2953521,DE,Bad Dürrenberg,1601343907,51.3,12.07,4,81,5.82,54
3074020,CZ,Kadaň,1601343908,50.38,13.27,95,93,5.82,46.4
753276,PL,Zielonka,1601343908,52.3,21.16,100,81,6.93,55
1500485,RU,Listvyagi,1601343909,53.68,86.95,100,79,9.6,42.84
760680,PL,Radzyń Podlaski,1601343910,51.78,22.62,100,100,5.82,53.01
570455,RU,Buzdyak,1601343911,54.58,54.55,0,84,2.42,46.38
455718,LV,Sigulda,1601343914,57.15,24.86,86,96,4.09,53.01
596260,LT,Pakruojis,1601343915,55.97,23.87,69,100,3.36,39.2
2649322,GB,Fleet,1601343916,51.28,-0.83,96,93,3.36,59
499292,RU,Salavat,1601343917,53.38,55.91,3,91,3,45.27
2620871,DK,Hals,1601343636,57,10.31,74,93,1.01,53.01
3084093,PL,Swidnica,1601343919,50.84,16.49,100,91,4.03,46
518976,RU,Novocheboksarsk,1601343919,56.11,47.48,73,80,6.71,39.2
3099759,PL,Elblag,1601343921,54.15,19.41,44,81,3.36,53.6
2783309,BE,Zedelgem,1601343922,51.13,3.14,70,91,1.01,53.01
3161733,NO,Bergen,1601343923,60.39,5.33,75,93,6.93,55.99
3077706,CZ,Chodov,1601343924,50.24,12.75,45,93,5.82,46.4
3101680,PL,Chodzież,1601343924,52.99,16.92,92,93,4.7,53.01
2646504,GB,Hove,1601343925,50.83,-0.17,89,95,1.99,62.01
587517,EE,Võhma,1601343926,58.63,25.55,100,93,2.64,54
2792857,BE,Leopoldsburg,1601343927,51.12,5.25,100,93,2.24,57
2698767,SE,Kumla,1601343928,59.13,15.14,90,93,6.93,55.4
2613172,DK,Søften,1601343929,56.24,10.09,85,93,3.36,55.4
2017632,RU,Priiskovyy,1601343930,51.93,116.63,0,53,5.28,47.68
2644495,GB,Limekilns,1601343931,56.03,-3.48,10,100,4.7,46.99
2610311,DK,Viby,1601343932,55.55,12.02,0,93,4.7,51.8
2655952,GB,Bellshill,1601343932,55.82,-4.02,49,93,4.25,44.01
3088477,PL,Połczyn-Zdrój,1601343933,53.76,16.1,98,91,5.37,51.01
2966796,IE,Bailieborough,1601343934,53.92,-6.97,79,89,3.44,42.01
1493162,RU,Salym,1601343935,60.06,71.48,30,94,3.11,33.03
486186,RU,Suoyarvi,1601343936,62.08,32.35,0,95,3.94,42.89
646709,FI,Mäntsälä,1601343937,60.66,25.28,9,87,1.01,53.01
3136023,NO,Storsteinnes,1601343938,69.24,19.23,0,93,16.11,44.6
660073,FI,Eurajoki,1601343939,61.2,21.73,23,93,2.24,50
3041732,AX,Mariehamn,1601343939,60.1,19.93,97,93,2.24,55.4
515879,RU,Oktyabr'skiy,1601343940,54.48,53.47,0,81,1.21,46.24
470762,RU,Vyartsilya,1601343941,62.18,30.69,2,95,4.74,45.84
2715459,SE,Falun,1601343942,60.6,15.63,90,100,2.24,50
6453319,NO,Harstad,1601343944,68.8,16.53,39,87,16.11,53.01
497927,RU,Segezha,1601343944,63.74,34.32,1,89,6.17,46.62
644436,FI,Noormarkku,1601343945,61.59,21.87,31,93,2.24,50
1486913,RU,Vorgashor,1601343946,67.58,63.95,100,83,11.36,36.16
2125906,RU,Dukat,1601343947,62.55,155.55,98,71,8.08,39.97
2026861,RU,Berdigestyakh,1601343948,62.1,126.7,93,74,8.63,41.31
652977,FI,Keuruu,1601343949,62.27,24.7,30,100,1.12,48.99
5882953,CA,Aklavik,1601343950,68.22,-135.01,90,100,8.05,37.4
509234,RU,Pitkyaranta,1601343951,61.57,31.48,0,93,8.14,48.13
464790,RU,Zapolyarnyy,1601343952,69.42,30.81,48,87,16.11,51.8
3155487,NO,Glomfjord,1601343952,66.82,13.97,27,71,21.92,57.99
3132893,NO,Våler,1601343953,60.68,11.83,100,86,2.24,53.01
526600,RU,Mikun',1601343954,62.35,50.08,100,95,3.98,44.31
508034,RU,Nikolskiy,1601343955,60.92,34.06,31,88,4.63,47.07
1265591,IN,Kalya,1601343956,12.98,77.18,75,88,4.7,73.4
634093,FI,Tornio,1601343957,65.85,24.15,44,100,5.82,48.2
778829,NO,Lyngseidet,1601343957,69.58,20.22,6,93,16.11,44.6
2012570,RU,Zhatay,1601343958,62.16,129.83,0,75,6.71,41
553766,RU,Kamenka,1601343926,51.32,42.77,100,51,9.19,46.85
481548,RU,Troitsko-Pechorsk,1601343958,62.71,56.2,58,96,4.61,45.1
795243,RU,Snezhnogorsk,1601343962,69.19,33.25,40,100,4.47,46.4
604490,SE,Luleå,1601343963,65.58,22.15,90,100,2.84,46.4
533933,RU,Lovozero,1601343964,68,35.01,2,87,3.76,42.58
3145580,NO,Molde,1601343965,62.74,7.16,53,87,8.05,51.8
3149533,NO,Roverud,1601343966,60.25,12.05,100,86,1.9,53.01
630752,FI,Ylöjärvi,1601343967,61.56,23.6,40,100,3.36,48.99
2125693,RU,Evensk,1601343968,61.95,159.23,100,72,4.34,48
3160491,NO,Botngård,1601343969,63.77,9.81,40,87,9.17,55
3415496,IS,Keflavik,1601343969,64,-22.56,75,100,9.17,41
1539210,RU,Purpe,1601343970,64.48,76.69,100,93,10.45,30.99
2017215,RU,Sangar,1601343971,63.92,127.47,86,83,8.28,39.92
2611396,FO,Tórshavn,1601343972,62.01,-6.77,0,93,12.75,48.2
5924351,CA,Clyde River,1601343910,70.47,-68.59,75,86,21.92,30.2
3421719,GL,Narsaq,1601343963,60.92,-46.05,0,82,4.7,32
3831208,GL,Qaanaaq,1601343946,77.48,-69.36,81,78,8.68,12.87
3418910,GL,Upernavik,1601343976,72.79,-56.15,59,90,7.16,24.69
780717,NO,Båtsfjord,1601343977,70.63,29.72,1,84,10.8,46.8
780687,NO,Berlevåg,1601343978,70.86,29.09,13,82,7.54,48.74
779683,NO,Hammerfest,1601343979,70.66,23.68,50,81,6.93,48.2
779622,NO,Havøysund,1601343979,71,24.66,42,81,6.93,48.2
779554,NO,Honningsvåg,1601343980,70.98,25.97,2,85,18.57,48.9
779261,NO,Kjøllefjord,1601343981,70.95,27.35,0,83,5.46,47.88
779082,NO,Lakselv,1601343981,70.05,24.97,80,87,17.22,50
778707,NO,Mehamn,1601343695,71.04,27.85,8,84,4.92,46.94
778362,NO,Øksfjord,1601343983,70.24,22.35,39,87,16.11,50
847634,NO,Rypefjord,1601343984,70.63,23.67,54,81,6.93,48.2
777682,NO,Skjervøy,1601343984,70.03,20.97,23,74,10.16,52.21
777073,NO,Vadsø,1601343985,70.07,29.75,11,87,16.11,51.8
777019,NO,Vardø,1601343980,70.37,31.11,0,89,8.37,48.22
2126123,RU,Chokurdakh,1601343987,70.63,147.92,22,67,5.19,42.98
1507390,RU,Dikson,1601343927,73.51,80.55,100,92,25.34,39.49
2022572,RU,Khatanga,1601343921,71.97,102.5,98,94,11.97,30.69
2017155,RU,Saskylakh,1601343891,71.92,114.08,100,96,14.45,29.08
2015306,RU,Tiksi,1601343943,71.69,128.87,32,78,22.93,35.53
2013921,RU,Ust-Kuyga,1601343993,70.02,135.6,0,71,2.21,41.77
2729907,SJ,Longyearbyen,1601343995,78.22,15.64,75,86,6.93,39.2
5880054,US,Barrow,1601343923,71.29,-156.79,90,80,10.29,30.2
